markers = [
   {
     "name": "Vancouver, British Columbia",
     "url": "https://en.wikipedia.org/wiki/Vancouver",
     "lat": 49.2569332,
     "lng": -123.1239135
   },
   {
     "name": "Kelowna, British Columbia",
     "url": "https://en.wikipedia.org/wiki/Kelowna",
     "lat": 49.8996925,
     "lng": -119.4546625
   },
   {
     "name": "Dillon, Montana",
     "url": "https://en.wikipedia.org/wiki/Dillon,_Montana",
     "lat": 45.218279,
     "lng": -112.636446
   },
   {
     "name": "Shoshone, California",
     "url": "https://en.wikipedia.org/wiki/Shoshone,_California",
     "lat": 35.9489749,
     "lng": -116.3163671
   },
   {
     "name": "Anaheim, California",
     "url": "https://en.wikipedia.org/wiki/Anaheim,_California",
     "lat": 33.8352315,
     "lng": -117.8460995
   },
   {
     "name": "Hong Kong",
     "url": "https://en.wikipedia.org/wiki/Hong_Kong",
     "lat": 22.3576782,
     "lng": 114.1210175
   },
   {
     "name": "Guangzhou",
     "url": "https://en.wikipedia.org/wiki/Guangzhou",
     "lat": 23.1255978,
     "lng": 113.2278442
   },
   {
	 "name": "Silver City, New Mexico",
	 "url": "https://en.wikipedia.org/wiki/Silver_City,_New_Mexico",
	 "lat": 32.7518714,
	 "lng": -108.241752
   },
   {
	 "name": "Las Cruces, New Mexico",
	 "url": "https://en.wikipedia.org/wiki/Las_Cruces,_New_Mexico",
	 "lat": 32.3440134,
	 "lng": -106.8113814
   },
   {
	 "name": "Portland, Oregon",
	 "url": "https://en.wikipedia.org/wiki/Portland,_Oregon",
	 "lat": 45.5424364,
	 "lng": -122.654422
   }
];
